     2.11           OBSERVATION DATA    M (MIXED)           RINEX VERSION / TYPE
JPS2RIN v.2.0.36    JAVAD GNSS          20160605 065308 UTC PGM / RUN BY / DATE
-Unknown-           -Unknown-                               OBSERVER / AGENCY
CRAC                                                        MARKER NAME
03UT1IMFLD3Q53VWB3JKTRIUMPH_6           3.4.14 Jan,29,2014  REC # / TYPE / VERS
  3857442.0112  1398092.0697  4867194.9685                  APPROX POSITION XYZ
-Unknown-           JAV_TRIUMPH-1R  NONE                    ANT # / TYPE
        1.5238        0.0000        0.0000                  ANTENNA: DELTA H/E/N
Antenna is slant; Height = 1.76                             COMMENT
     1     1                                                WAVELENGTH FACT L1/2
    14    C1    P1    L1    D1    S1    C2    P2    L2    D2# / TYPES OF OBSERV
          S2    C5    L5    D5    S5                        # / TYPES OF OBSERV
     5.000                                                  INTERVAL
  2014    10    17     7    58   30.0000000     GPS         TIME OF FIRST OBS
  2014    10    17     9     5   15.0000000     GPS         TIME OF LAST OBS
    16                                                      LEAP SECONDS
    21                                                      # OF SATELLITES
   G 3   802   802   802   802   802     0   802   802   802PRN / # OF OBS
         802     0     0     0     0                        PRN / # OF OBS
   G 5   773   703   714   773   703   692   652   714   714PRN / # OF OBS
         652     0     0     0     0                        PRN / # OF OBS
   G 8   412   397   397   412   397     0   397   397   397PRN / # OF OBS
         397     0     0     0     0                        PRN / # OF OBS
   G16   802   802   802   802   802     0   802   802   802PRN / # OF OBS
         802     0     0     0     0                        PRN / # OF OBS
   G18   541   527   527   541   527     0   527   527   527PRN / # OF OBS
         527     0     0     0     0                        PRN / # OF OBS
   G21   802   802   802   802   802     0   802   802   802PRN / # OF OBS
         802     0     0     0     0                        PRN / # OF OBS
   G25   301   300   300   301   300   301   300   300   300PRN / # OF OBS
         300   301   301   301   301                        PRN / # OF OBS
   G27   431   397   397   431   397   428   397   397   397PRN / # OF OBS
         397   424   424   424   424                        PRN / # OF OBS
   G29   778   772   772   778   772   775   772   772   772PRN / # OF OBS
         772     0     0     0     0                        PRN / # OF OBS
   G31   802   802   802   802   802   802   802   802   802PRN / # OF OBS
         802     0     0     0     0                        PRN / # OF OBS
   R 5   297   269   286   297   269   236   216   272   272PRN / # OF OBS
         216     0     0     0     0                        PRN / # OF OBS
   R 6   799   796   796   799   796   792   763   763   763PRN / # OF OBS
         763     0     0     0     0                        PRN / # OF OBS
   R 7   795   789   791   795   789   785   766   767   767PRN / # OF OBS
         766     0     0     0     0                        PRN / # OF OBS
   R11    87    87    87    87    87    86    79    79    79PRN / # OF OBS
          79     0     0     0     0                        PRN / # OF OBS
   R12   802   802   802   802   802   802   802   802   802PRN / # OF OBS
         802     0     0     0     0                        PRN / # OF OBS
   R13   801   800   800   801   800   801   790   790   790PRN / # OF OBS
         790     0     0     0     0                        PRN / # OF OBS
   R14   599   595   595   599   595   589   584   584   584PRN / # OF OBS
         584     0     0     0     0                        PRN / # OF OBS
   R21   571   554   555   571   554   555   508   508   508PRN / # OF OBS
         508     0     0     0     0                        PRN / # OF OBS
   R22   802   802   802   802   802   802   802   802   802PRN / # OF OBS
         802     0     0     0     0                        PRN / # OF OBS
   R23   802   802   802   802   802   802   793   793   793PRN / # OF OBS
         793     0     0     0     0                        PRN / # OF OBS
   R24   244   228   228   244   228   218   163   164   164PRN / # OF OBS
         163     0     0     0     0                        PRN / # OF OBS
                                                            END OF HEADER
 14 10 17  7 58 30.0000000  0 15G 3R 5R21G 5R12G31R11G25R13G16R22G29-0.000343311
                                G21R23R 6
  21416655.773    21416655.243   112545284.197 4      1399.381          26.750  
                  21416656.713    87697626.483 4      1090.516          26.750  
                                                                
  23275978.409    23275980.109   124423437.610 5     -2981.865          35.000  
  23276057.239                                                                  
                                                                
  21832982.674    21832983.104   116832671.583 6     -4207.528          41.500  
  21832990.234    21832990.934    90869857.850 7     -3272.404          42.000  
                                                                
  23217574.755    23217576.255   122009205.893 3     -1465.021          22.500  
  23217580.805    23217581.815    95072118.150 3     -1141.469          22.500  
                                                                
  20042756.403    20042756.533   107064796.193 7     -3488.805          45.500  
  20042765.903    20042766.163    83272622.049 7     -2713.538          42.000  
                                                                
  22402389.746    22402389.236   117725340.292 5     -3311.900          35.000  
  22402391.176    22402391.076    91734035.393 5     -2580.588          35.000  
                                                                
  23710764.887    23710766.057   126703124.112 6     -5584.051          40.750  
  23710783.497    23710782.147    98546865.071 6     -4343.202          36.750  
                                                                
  22944744.645    22944744.745   120575435.561 5     -4298.680          31.750  
  22944750.615    22944749.875    93954884.334 5     -3349.551          31.750  
  22944753.655    90040095.601 8     -3210.023          50.750  
  20652930.334    20652928.904   110285495.081 7       935.143          42.250  
  20652938.714    20652938.294    85777602.176 7       727.335          45.000  
                                                                
  23468501.993    23468500.993   123327815.402 4      2409.322          27.500  
                  23468502.633    96099593.677 4      1877.482          27.500  
                                                                
  19216334.091    19216333.151   102578084.376 8     -1574.416          53.000  
  19216339.801    19216340.081    79782955.057 8     -1224.549          48.000  
                                                                
  20453815.378    20453815.038   107485519.661 7     -2330.925          44.000  
  20453816.368    20453815.418    83754952.331 7     -1816.291          44.000  
                                                                
  21732009.552    21732008.122   114202482.786 6      1123.801          37.000  
                  21732009.072    88988950.042 6       875.700          37.000  
                                                                
  21425874.706    21425874.126   114613976.742 7      1901.869          43.250  
  21425883.986    21425884.196    89144200.898 6      1479.178          36.250  
                                                                
  22051726.957    22051728.077   117672276.362 6       641.358          38.000  
  22051738.477    22051735.167    91522885.000 5       498.909          31.000  
                                                                
 14 10 17  7 58 35.0000000  0 15G 3R 5R21G 5R12G31R11G25R13G16R22G29-0.000340454
                                G21R23R 6
  21415325.740    21415324.180   112538292.279 4      1397.426          26.500  
                  21415325.340    87692178.233 4      1088.848          26.500  
                                                                
  23278768.641    23278768.871   124438355.319 5     -2985.168          34.750  
  23278914.761    23278770.771    96785403.557 4     -2320.936          27.250  
                                                                
  21836914.035    21836914.355   116853709.958 6     -4207.575          40.000  
  21836920.995    21836921.825    90886221.013 6     -3272.573          41.250  
                                                                
  23218976.288    23218970.918   122016538.267 3     -1467.839          22.500  
  23218975.958    23218974.138    95077831.696 3     -1143.743          22.500  
                                                                
  20046023.755    20046023.875   107082248.427 7     -3492.140          46.000  
  20046032.625    20046032.515    83286196.008 7     -2716.104          42.000  
                                                                
  22405541.270    22405541.150   117741903.634 5     -3313.352          35.000  
  22405543.980    22405544.140    91746941.866 5     -2581.851          35.000  
                                                                
  23715991.187    23715991.047   126731043.082 6     -5583.628          39.250  
  23716008.047    23716007.187    98568579.811 6     -4342.689          37.000  
                                                                
  22948834.833    22948834.553   120596930.948 5     -4299.417          32.250  
  22948840.883    22948840.953    93971633.956 5     -3350.247          32.250  
  22948844.173    90056147.324 8     -3210.637          50.000  
  20652054.772    20652055.572   110280828.555 7       931.591          42.500  
  20652064.682    20652064.492    85773972.652 7       724.626          44.750  
                                                                
  23466209.588    23466209.658   123315769.798 4      2409.091          27.750  
                  23466210.258    96090207.479 4      1877.160          27.750  
                                                                
  19217809.918    19217808.938   102585961.244 8     -1576.332          52.500  
  19217815.708    19217815.288    79789081.510 8     -1226.044          48.250  
                                                                
  20456033.887    20456033.567   107497177.370 7     -2332.138          44.250  
  20456033.667    20456033.587    83764036.253 7     -1817.246          44.250  
                                                                
  21730941.005    21730939.265   114196867.460 6      1122.418          36.750  
                  21730940.335    88984574.460 6       874.614          36.750  
                                                                
  21424097.554    21424097.614   114604470.676 7      1900.721          43.250  
  21424102.634    21424107.484    89136807.310 6      1478.343          36.000  
                                                                
  22051124.392    22051126.282   117669078.961 6       637.821          37.000  
  22051139.082    22051136.462    91520398.179 5       496.157          30.000  
                                                                
 14 10 17  7 58 40.0000000  0 15G 3R 5R21G 5R12G31R11G25R13G16R22G29-0.000337598
                                G21R23R 6
  21413997.426    21413995.966   112531311.504 4      1394.938          27.000  
                  21413997.916    87686738.675 4      1086.988          27.000  
                                                                
  23281561.999    23281562.499   124453290.131 5     -2988.682          34.000  
  23281659.289                                                                  
                                                                
  21840849.554    21840845.474   116874750.559 6     -4208.849          38.250  
  21840855.414    21840854.874    90902585.949 6     -3273.622          41.250  
                                                                
  23220368.758    23220369.648   122023885.598 3     -1471.111          20.750  
  23220374.388    23220373.448    95083556.828 3     -1146.314          20.750  
                                                                
  20049294.688    20049294.478   107099718.800 7     -3496.009          45.500  
  20049302.688    20049303.878    83299784.066 7     -2719.104          42.250  
                                                                
  22408694.711    22408694.721   117758476.614 5     -3315.703          35.250  
  22408697.171    22408696.871    91759855.860 5     -2583.634          35.250  
                                                                
  23721214.978    23721215.478   126758961.867 6     -5583.552          41.000  
  23721231.168    23721231.678    98590294.357 5     -4342.563          32.250  
                                                                
  22952927.153    22952926.213   120618431.191 5     -4300.655          31.500  
  22952933.133    22952930.973    93988387.363 5     -3351.199          31.500  
  22952935.363    90072202.671 8     -3211.590          50.000  
  20651185.224    20651185.154   110276181.592 7       927.390          42.750  
  20651194.734    20651193.984    85770358.336 7       721.365          45.000  
                                                                
  23463915.948    23463917.688   123303727.361 4      2408.090          28.000  
                  23463919.958    96080823.783 4      1876.461          28.000  
                                                                
  19219287.250    19219286.490   102593849.260 8     -1578.798          52.750  
  19219292.750    19219293.220    79795216.629 8     -1227.959          48.500  
                                                                
  20458253.257    20458253.417   107508842.431 7     -2333.846          44.000  
  20458254.347    20458253.427    83773125.895 7     -1818.574          44.000  
                                                                
  21729873.555    21729872.655   114191260.472 6      1120.465          36.500  
                  21729873.935    88980205.390 6       873.078          36.500  
                                                                
  21422320.327    21422321.457   114594971.419 7      1899.144          44.250  
  21422333.387    21422329.897    89129418.997 5      1477.144          35.250  
                                                                
  22050534.665    22050532.435   117665899.920 6       633.891          36.000  
  22050543.535    22050540.825    91517925.643 5       493.114          30.500  
                                                                
 14 10 17  7 58 45.0000000  0 15G 3R 5R21G 5R12G31R11G25R13G16R22G29-0.000334742
                                G21R23R 6
  21412670.038    21412669.828   112524341.648 4      1392.824          27.750  
                  21412671.288    87681307.628 4      1085.467          27.750  
                                                                
  23284374.082    23284359.342   124468241.882 5     -2991.772          31.500  
  23284456.762    23284484.952    96808753.270 4     -2327.134          24.000  
                                                                
  21844779.621    21844779.311   116895793.076 6     -4208.685          37.000  
  21844784.711    21844786.641    90918952.323 6     -3273.302          40.500  
                                                                
  23221771.871    23221774.181   122031247.711 3     -1473.756          22.500  
  23221774.611    23221774.281    95089293.573 3     -1148.246          22.500  
                                                                
  20052569.342    20052568.392   107117207.045 7     -3499.571          45.500  
  20052577.312    20052577.292    83313386.014 6     -2721.878          41.500  
                                                                
  22411850.297    22411850.117   117775058.930 5     -3317.477          34.250  
  22411853.417    22411852.837    91772777.101 5     -2585.036          34.250  
                                                                
  23726440.822    23726439.292   126786880.140 6     -5583.706          39.500  
  23726454.202    23726455.692    98612008.489 5     -4343.021          33.750  
                                                                
  22957019.071    22957017.361   120639935.977 5     -4301.417          32.500  
  22957025.221    22957025.111    94005144.316 5     -3351.666          32.500  
  22957027.791    90088261.399 8     -3212.075          50.000  
  20650320.682    20650318.982   110271553.770 7       923.618          43.000  
  20650328.042    20650327.112    85766758.909 7       718.348          44.750  
                                                                
  23461626.226    23461624.516   123291687.772 4      2407.710          27.000  
                  23461627.306    96071442.265 4      1876.171          27.000  
                                                                
  19220766.297    19220766.487   102601747.954 8     -1580.882          52.500  
  19220773.127    19220772.527    79801360.047 8     -1229.572          48.250  
                                                                
  20460474.461    20460474.221   107520514.577 7     -2335.255          44.000  
  20460474.861    20460474.711    83782221.067 7     -1819.674          44.000  
                                                                
  21728809.126    21728807.446   114185661.592 6      1118.892          36.750  
                  21728808.566    88975842.632 6       871.883          36.750  
                                                                
  21420546.461    21420547.171   114585478.745 7      1897.813          44.500  
  21420552.601    21420555.971    89122035.805 5      1476.118          33.750  
                                                                
  22049934.822    22049939.802   117662739.041 6       630.166          38.000  
  22049947.802    22049949.462    91515467.159 5       490.175          31.000  
                                                                
 14 10 17  7 58 50.0000000  0 15G 3R 5R21G 5R12G31R11G25R13G16R22G29-0.000331888
                                G21R23R 6
  21411345.543    21411344.243   112517382.674 4      1390.583          27.000  
                  21411346.353    87675885.050 4      1083.669          27.000  
                                                                
  23287201.305                   124483210.544       -2995.505                  
  23287246.315    23287282.925    96820396.796 3     -2329.770          23.750  
                                                                
  21848713.914    21848709.904   116916837.475 5     -4209.369          34.500  
  21848718.644    21848719.614    90935320.182 6     -3273.976          41.250  
                                                                
  23223174.774    23223177.624   122038624.709 3     -1477.174          22.500  
  23223179.264    23223178.314    95095041.853 3     -1150.944          22.500  
                                                                
  20055846.484    20055845.254   107134713.172 7     -3503.212          45.750  
  20055853.144    20055854.684    83327001.882 6     -2724.761          41.250  
                                                                
  22415008.191    22415007.361   117791650.543 5     -3319.385          34.750  
  22415010.441    22415010.211    91785705.641 5     -2586.491          34.750  
                                                                
  23731663.200    23731663.480   126814797.883 6     -5583.576          37.500  
  23731679.960    23731680.480    98633722.273 5     -4342.790          35.500  
                                                                
  22961111.211    22961110.301   120661445.296 5     -4302.484          32.500  
  22961118.431    22961117.591    94021904.791 5     -3352.613          32.500  
  22961121.021    90104323.534 8     -3212.876          49.750  
  20649455.439    20649455.979   110266945.329 7       919.635          42.250  
  20649464.319    20649464.419    85763174.580 7       715.254          44.750  
                                                                
  23459336.288    23459335.598   123279651.005 4      2406.846          27.250  
                  23459337.878    96062062.978 4      1875.448          27.250  
                                                                
  19222248.261    19222248.011   102609657.409 8     -1583.143          52.750  
  19222255.051    19222254.671    79807511.845 8     -1231.303          48.500  
                                                                
  20462697.251    20462697.061   107532193.815 7     -2336.788          43.750  
  20462697.431    20462697.051    83791321.764 7     -1820.865          43.750  
                                                                
  21727744.533    21727743.383   114180070.845 6      1117.167          37.250  
                  21727744.693    88971486.212 6       870.524          37.250  
                                                                
  21418775.656    21418773.776   114575992.684 7      1896.390          45.000  
  21418778.206    21418783.396    89114657.759 5      1474.923          33.750  
                                                                
  22049351.288    22049351.238   117659596.552 6       626.424          38.500  
  22049356.008    22049359.348    91513023.021 5       487.356          31.000  
                                                                
 14 10 17  7 58 55.0000000  0 15G 3R 5R21G 5R12G31R11G25R13G16R22G29-0.000329031
                                G21R23R 6
  21410024.873    21410023.553   112510436.673 4      1387.840          26.500  
                  21410024.713    87670472.556 4      1081.268          26.500  
                                                                
  23290084.541                   124498197.706       -2999.897                  
                  23290076.601    96832057.964 3     -2332.511          22.000  
                                                                
  21852643.594    21852638.864   116937885.818 5     -4210.203          31.500  
  21852652.494    21852652.894    90951691.172 6     -3274.837          41.000  
                                                                
  23224583.615    23224584.525   122046018.439 3     -1480.411          23.250  
  23224585.645    23224585.105    95100803.184 3     -1153.534          23.250  
                                                                
  20059125.662    20059126.362   107152239.135 7     -3507.295          45.750  
  20059136.702    20059135.712    83340633.182 6     -2727.883          41.500  
                                                                
  22418167.524    22418167.314   117808253.570 5     -3321.856          34.750  
  22418169.584    22418169.754    91798643.035 5     -2588.487          34.750  
                                                                
  23736891.776    23736888.686   126842717.112 6     -5583.948          37.500  
  23736903.776    23736905.536    98655437.246 5     -4343.027          35.500  
                                                                
  22965206.089    22965205.029   120682961.191 5     -4303.875          33.250  
  22965212.569    22965211.729    94038670.393 5     -3353.673          33.250  
  22965215.419    90120390.555 8     -3213.924          50.000  
  20648596.426    20648596.086   110262358.173 7       915.323          42.000  
  20648605.496    20648605.726    85759606.794 7       711.954          45.000  
                                                                
  23457046.875    23457046.835   123267619.207 4      2405.713          27.750  
                  23457048.625    96052687.569 4      1874.692          27.750  
                                                                
  19223732.828    19223731.998   102617579.618 8     -1585.907          53.250  
  19223738.948    19223738.848    79813673.569 8     -1233.454          48.750  
                                                                
  20464920.848    20464921.018   107543882.183 7     -2338.678          43.500  
  20464921.598    20464921.348    83800429.574 7     -1822.376          43.500  
                                                                
  21726682.270    21726681.450   114174490.260 6      1115.054          37.250  
                  21726682.190    88967137.707 6       868.868          37.250  
                                                                
  21417003.610    21417002.810   114566515.220 7      1894.525          44.750  
  21417015.520    21417013.260    89107286.435 5      1473.570          34.000  
                                                                
  22048764.210    22048764.920   117656474.287 6       622.721          37.000  
  22048774.390    22048774.450    91510594.632 5       484.405          30.750  
                                                                
 14 10 17  7 59  0.0000000  0 16G 3R 7R 5R21G 5R12G31R11G25R13G16R22-0.000326182
                                G29G21R23R 6
  21408705.157    21408701.927   112503502.297 4      1386.003          26.750  
                  21408704.267    87665069.172 4      1079.962          26.750  
                                                                
  23474063.146                                        3021.182                  
                                                                                
                                                                
  23292865.383                   124513203.300       -3002.850                  
                                                                                
                                                                
  21856573.483    21856573.273   116958936.952 5     -4210.483          33.750  
  21856587.653    21856585.503    90968064.204 6     -3275.012          40.500  
                                                                
  23225992.979    23225990.969   122053427.708 4     -1483.141          25.250  
  23225997.149    23225996.429    95106576.628 4     -1155.700          25.250  
                                                                
  20062410.740    20062411.040   107169783.722 7     -3510.582          46.000  
  20062418.810    20062419.510    83354278.940 6     -2730.451          41.250  
                                                                
  22421328.904    22421328.774   117824866.574 5     -3323.330          35.500  
  22421331.634    22421331.264    91811588.231 5     -2589.581          35.500  
                                                                
  23742112.488    23742112.408   126870636.563 6     -5583.779          38.750  
  23742132.918    23742129.968    98677152.323 6     -4342.996          36.000  
                                                                
  22969300.552    22969300.592   120704482.319 5     -4304.558          32.750  
  22969308.312    22969307.512    94055440.099 5     -3354.203          32.750  
  22969310.432    90136461.502 8     -3214.459          49.750  
  20647743.160    20647741.750   110257790.929 7       911.679          42.000  
  20647749.750    20647749.660    85756054.488 7       709.167          44.500  
                                                                
  23454757.369    23454758.959   123255590.996 4      2405.497          27.500  
                  23454759.429    96043314.940 4      1874.304          27.500  
                                                                
  19225218.563    19225218.373   102625513.306 8     -1587.609          53.500  
  19225224.983    19225225.253    79819844.204 8     -1234.809          48.500  
                                                                
  20467147.071    20467146.721   107555578.328 7     -2339.765          43.250  
  20467147.381    20467147.181    83809543.450 7     -1823.162          43.250  
                                                                
  21725621.916    21725620.886   114168918.483 6      1113.720          37.000  
                  21725622.406    88962796.079 6       867.868          37.000  
                                                                
  21415230.071    21415232.231   114557045.147 7      1893.566          44.250  
  21415240.321    21415241.831    89099920.836 5      1472.820          32.250  
                                                                
  22048183.293    22048185.583   117653371.025 6       619.126          38.250  
  22048194.683    22048194.683    91508180.993 5       481.660          31.500  
                                                                
 14 10 17  7 59  5.0000000  0 16G 3R 7R 5R21G 5R12G31R11G25R13G16R22-0.000323330
                                G29G21R23R 6
  21407387.476    21407385.296   112496579.830 4      1383.380          26.250  
                  21407389.776    87659675.055 4      1078.138          26.250  
                                                                
  23471217.975    23471222.605   125643314.516 5      3020.176          33.250  
                                                                                
                                                                
  23295667.303                   124528226.012       -3005.849                  
  23295691.133                                                                  
                                                                
  21860505.948    21860509.608   116979990.851 6     -4211.127          37.500  
  21860521.368    21860520.158    90984439.461 6     -3275.245          40.000  
                                                                
  23227406.386    23227403.606   122060852.641 4     -1486.669          24.750  
  23227409.286    23227409.626    95112362.296 4     -1158.426          24.750  
                                                                
  20065699.580    20065698.690   107187346.994 7     -3514.586          46.000  
  20065706.740    20065707.640    83367939.257 6     -2733.530          41.500  
                                                                
  22424492.341    22424491.571   117841489.808 5     -3325.700          34.750  
  22424494.801    22424493.761    91824541.386 5     -2591.508          34.750  
                                                                
  23747339.048    23747340.298   126898556.336 6     -5583.857          41.500  
  23747353.548    23747354.708    98698867.619 5     -4343.141          34.500  
                                                                
  22973397.675    22973396.995   120726008.898 5     -4305.860          32.500  
  22973403.395    22973403.475    94072214.029 5     -3355.171          32.500  
  22973407.195    90152536.525 8     -3215.370          50.750  
  20646892.532    20646889.452   110253243.854 7       907.418          42.750  
  20646898.662    20646897.972    85752517.884 7       705.863          44.250  
                                                                
  23452469.386    23452469.276   123243566.558 4      2404.512          27.500  
                  23452470.816    96033945.249 4      1873.621          27.500  
                                                                
  19226707.614    19226706.974   102633458.646 8     -1590.251          53.500  
  19226714.194    19226713.494    79826023.907 8     -1236.878          48.500  
                                                                
  20469374.436    20469373.796   107567282.515 7     -2341.671          43.750  
  20469374.536    20469374.596    83818663.571 7     -1824.642          43.750  
                                                                
  21724563.502    21724562.802   114163355.764 6      1111.607          37.000  
                  21724564.382    88958461.494 6       866.194          37.000  
                                                                
  21413463.751    21413463.221   114547582.577 7      1891.770          43.750  
  21413471.521    21413474.261    89092561.050 5      1471.412          34.750  
                                                                
  22047608.699    22047606.549   117650287.067 6       615.015          39.000  
  22047615.979    22047616.669    91505782.362 5       478.370          32.750  
                                                                
 14 10 17  7 59 10.0000000  0 16G 3R 7R 5R21G 5R12G31R11G25R13G16R22-0.000320478
                                G29G21R23R 6
  21406072.215    21406070.655   112489669.570 4      1380.274          26.250  
                  21406073.275    87654290.436 4      1075.520          26.250  
                                                                
  23468396.592    23468400.612   125628217.391 5      3018.684          32.750  
  23468470.022                                                                  
                                                                
  23298454.579                   124543271.471       -3010.803                  
  23298418.629                                                                  
                                                                
  21864442.615    21864445.695   117001047.968 6     -4212.218          39.000  
  21864455.605    21864455.945    91000817.161 6     -3276.115          40.000  
                                                                
  23228822.933    23228820.073   122068293.651 3     -1490.502          23.250  
  23228823.973    23228825.043    95118160.441 3     -1161.553          23.250  
                                                                
  20068992.348    20068990.178   107204929.380 7     -3518.902          45.250  
  20068999.768    20068999.128    83381614.429 6     -2736.971          41.750  
                                                                
  22427656.884    22427657.494   117858123.599 5     -3328.288          35.250  
  22427660.804    22427659.504    91837502.769 5     -2593.370          35.250  
                                                                
  23752563.927    23752563.867   126926476.738 6     -5584.781          40.250  
  23752580.897    23752579.917    98720583.506 5     -4343.607          35.500  
                                                                
  22977494.881    22977494.061   120747541.202 5     -4307.500          32.250  
  22977502.101    22977501.261    94088992.419 5     -3356.572          32.250  
  22977504.551    90168615.829 8     -3216.674          50.000  
  20646042.410    20646041.930   110248717.310 7       902.843          42.250  
  20646051.510    20646051.130    85748997.235 7       702.226          44.750  
                                                                
  23450182.755    23450183.245   123231546.339 4      2403.019          27.750  
                  23450184.315    96024578.887 4      1872.403          27.750  
                                                                
  19228197.889    19228197.639   102641415.954 8     -1593.158          53.500  
  19228204.209    19228203.959    79832212.919 8     -1239.127          48.250  
                                                                
  20471602.640    20471602.550   107578995.038 7     -2343.857          43.500  
  20471603.940    20471603.140    83827790.207 7     -1826.401          43.500  
                                                                
  21723506.706    21723505.926   114157802.477 6      1109.190          38.000  
                  21723507.596    88954134.261 6       864.262          38.000  
                                                                
  21411696.276    21411695.796   114538127.815 7      1889.666          44.750  
  21411709.596    21411705.466    89085207.341 5      1469.715          33.750  
                                                                
  22047033.089    22047033.039   117647222.656 6       610.469          39.500  
  22047036.369    22047041.889    91503398.999 5       474.841          30.750  
                                                                
 14 10 17  7 59 15.0000000  0 16G 3R 7R 5R21G 5R12G31R11G25R13G16R22-0.000317626
                                G29G21R23R 6
  21404760.107    21404760.457   112482771.867 4      1378.116          26.500  
                  21404760.117    87648915.573 4      1073.789          26.500  
                                                                
  23465583.957    23465583.787   125613125.243 5      3017.484          32.250  
  23465734.487                                                                  
                                                                
  23301263.847    23301267.087   124558329.088 4     -3014.368          29.250  
  23301228.367                    96879012.055       -2344.899                  
                                                                
  21868377.274    21868382.134   117022108.547 6     -4212.612          38.750  
  21868390.294    21868390.994    91017197.584 6     -3276.549          39.750  
                                                                
  23230242.531    23230241.701   122075750.947 3     -1493.464          23.750  
  23230243.691    23230243.751    95123971.350 3     -1163.775          23.750  
                                                                
  20072284.591    20072285.291   107222531.105 7     -3522.479          45.500  
  20072293.251    20072294.031    83395304.652 7     -2739.737          42.000  
                                                                
  22430825.019    22430824.909   117874768.170 5     -3330.255          34.500  
  22430827.279    22430826.589    91850472.540 5     -2595.075          34.500  
                                                                
  23757789.487    23757789.687   126954398.151 6     -5584.623          38.250  
  23757803.297    23757806.267    98742300.067 5     -4343.712          35.750  
                                                                
  22981593.035    22981592.845   120769079.611 5     -4308.596          31.750  
  22981600.715    22981599.955    94105775.565 5     -3357.385          31.750  
  22981603.245    90184699.678 8     -3217.482          50.500  
  20645200.737    20645198.457   110244211.805 7       898.716          42.000  
  20645207.657    20645206.807    85745492.952 7       699.011          44.000  
                                                                
  23447894.071    23447894.611   123219530.650 4      2402.400          28.000  
                  23447897.701    96015216.030 4      1872.102          28.000  
                                                                
  19229690.990    19229690.650   102649385.613 8     -1595.410          53.500  
  19229696.340    19229696.830    79838411.536 8     -1240.890          48.250  
                                                                
  20473833.579    20473833.099   107590716.209 7     -2345.311          43.000  
  20473833.839    20473833.529    83836923.588 7     -1827.511          43.000  
                                                                
  21722451.740    21722450.820   114152258.875 6      1107.525          38.000  
                  21722452.390    88949814.577 6       863.000          38.000  
                                                                
  21409929.416    21409929.546   114528681.263 7      1888.299          44.250  
  21409930.446    21409938.556    89077860.096 5      1468.714          34.250  
                                                                
  22046462.652    22046463.252   117644178.165 6       606.733          40.250  
  22046463.722    22046470.772    91501031.078 4       472.000          29.750  
                                                                
 14 10 17  7 59 20.0000000  0 15G 3R 7R21G 5R12G31R11G25R13G16R22G29-0.000314774
                                G21R23R 6
  21403449.342    21403448.832   112475886.597 4      1375.905          27.000  
                  21403449.922    87643550.463 4      1072.179          27.000  
                                                                
  23462765.446    23462763.916   125598037.935 5      3017.414          32.250  
                                                                                
                                                                
  21872313.049    21872313.279   117043172.494 6     -4212.952          39.250  
  21872326.959    21872327.139    91033580.637 6     -3276.775          40.000  
                                                                
  23231662.372    23231666.462   122083224.426 3     -1496.202          23.500  
  23231665.462    23231666.232    95129794.855 3     -1165.844          23.500  
                                                                
  20075584.028    20075583.958   107240152.127 7     -3526.120          45.250  
  20075593.008    20075592.988    83409009.883 7     -2742.580          42.000  
                                                                
  22433993.483    22433993.933   117891423.464 5     -3332.067          35.000  
  22433997.373    22433996.803    91863450.689 5     -2596.397          35.000  
                                                                
  23763014.956    23763014.906   126982320.327 6     -5584.691          37.500  
  23763031.136    23763030.106    98764017.292 5     -4343.677          35.250  
                                                                
  22985693.836    22985692.866   120790623.938 5     -4309.429          32.750  
  22985700.726    22985700.176    94122563.356 5     -3357.978          32.750  
  22985703.036    90200787.944 8     -3218.087          50.750  
  20644358.509    20644357.789   110239727.012 6       894.804          41.500  
  20644367.789    20644367.339    85742004.774 7       695.922          44.000  
                                                                
  23445608.903    23445609.153   123207519.413 4      2401.764          27.250  
                  23445611.303    96005856.605 4      1871.447          27.250  
                                                                
  19231186.397    19231186.127   102657367.451 8     -1597.575          53.500  
  19231192.117    19231192.467    79844619.632 8     -1242.570          48.000  
                                                                
  20476066.049    20476065.349   107602445.900 7     -2346.783          43.250  
  20476066.059    20476065.709    83846063.593 7     -1828.681          43.250  
                                                                
  21721399.252    21721397.622   114146724.869 6      1105.948          37.500  
                  21721399.472    88945502.372 6       861.772          37.500  
                                                                
  21408164.577    21408164.637   114519242.860 7      1886.914          45.000  
  21408174.757    21408173.887    89070519.099 5      1467.524          32.750  
                                                                
  22045895.892    22045895.652   117641153.409 6       603.246          39.000  
  22045903.732    22045904.012    91498678.512 5       469.324          31.250  
                                                                
 14 10 17  7 59 25.0000000  0 15G 3R 7R21G 5R12G31R11G25R13G16R22G29-0.000311923
                                G21R23R 6
  21402142.259    21402140.779   112469013.032 4      1373.861          27.500  
                  21402143.449    87638194.420 4      1070.444          27.500  
                                                                
  23459946.540    23459946.200   125582954.940 5      3016.398          32.750  
                                                                                
                                                                
  21876253.305    21876252.515   117064238.976 6     -4213.150          40.750  
  21876265.085    21876263.415    91049965.684 6     -3276.851          39.750  
                                                                
  23233091.282    23233091.962   122090713.525 3     -1498.885          23.500  
  23233092.322    23233091.122    95135630.500 3     -1167.882          23.500  
                                                                
  20078886.977    20078886.717   107257791.555 7     -3529.351          46.000  
  20078895.777    20078895.107    83422729.417 7     -2745.021          42.000  
                                                                
  22437165.165    22437164.835   117908088.741 5     -3333.664          34.000  
  22437167.955    22437167.355    91876436.589 5     -2597.695          34.000  
                                                                
  23768239.736    23768240.996   127010242.483 6     -5584.123          39.500  
  23768256.206    23768255.056    98785734.443 6     -4343.298          36.750  
                                                                
  22989793.423    22989793.363   120812173.478 5     -4310.054          33.000  
  22989801.203    22989800.313    94139355.186 5     -3358.446          33.000  
  22989803.653    90216880.104 8     -3218.495          51.000  
  20643522.448    20643522.568   110235262.195 7       891.338          42.500  
  20643530.318    20643531.148    85738532.145 7       693.234          43.750  
                                                                
  23443325.887    23443322.717   123195511.831 4      2401.591          26.500  
                  23443327.627    95996500.082 4      1871.409          26.500  
                                                                
  19232683.956    19232683.526   102665360.666 8     -1599.427          53.750  
  19232689.766    19232689.586    79850836.575 8     -1243.956          48.000  
                                                                
  20478298.781    20478299.081   107614183.322 7     -2347.844          43.000  
  20478299.291    20478299.581    83855209.632 7     -1829.443          43.000  
                                                                
  21720347.619    21720346.379   114141199.745 6      1104.487          37.500  
                  21720348.289    88941197.092 6       860.671          37.500  
                                                                
  21406401.549    21406401.379   114509811.658 7      1885.883          45.000  
  21406414.219    21406410.639    89063183.739 5      1466.935          32.500  
                                                                
  22045332.069    22045331.589   117638147.601 6       599.519          38.250  
  22045339.109    22045340.799    91496340.708 5       466.386          32.000  
                                                                
 14 10 17  7 59 30.0000000  0 15G 3R 7R21G 5R12G31R11G25R13G16R22G29-0.000309072
                                G21R23R 6
  21400835.659    21400835.849   112462150.814 4      1371.561          27.250  
                  21400836.419    87632847.286 4      1068.842          27.250  
                                                                
  23457128.998    23457128.308   125567875.802 5      3015.412          31.250  
  23457164.138                                                                  
                                                                
  21880190.695    21880191.025   117085307.816 6     -4213.681          40.250  
  21880199.855    21880201.315    91066352.525 6     -3277.330          40.000  
                                                                
  23234518.138    23234519.148   122098217.710 3     -1502.137          23.750  
  23234520.168    23234516.758    95141477.939 3     -1170.404          23.750  
                                                                
  20082192.078    20082191.928   107275449.083 7     -3533.076          46.000  
  20082200.788    20082200.988    83436463.040 7     -2747.899          43.000  
                                                                
  22440338.744    22440338.284   117924763.623 5     -3335.809          35.500  
  22440340.564    22440340.654    91889429.998 5     -2599.230          35.500  
                                                                
  23773463.215    23773465.045   127038164.458 6     -5584.167          40.250  
  23773481.105    23773482.025    98807451.530 5     -4343.109          35.750  
                                                                
  22993895.366    22993894.326   120833727.882 5     -4311.208          30.750  
  22993903.066    22993902.846    94156150.792 5     -3359.425          30.750  
  22993905.156    90232975.901 8     -3219.339          51.000  
  20642690.107    20642689.427   110230817.157 6       887.169          41.750  
  20642699.817    20642699.027    85735074.897 7       690.045          44.000  
                                                                
  23441040.791    23441038.811   123183507.655 4      2400.682          27.500  
                  23441041.371    95987146.206 4      1870.783          27.500  
                                                                
  19234183.596    19234182.876   102673365.071 8     -1601.872          53.250  
  19234189.166    19234189.246    79857062.220 7     -1245.865          47.750  
                                                                
  20480533.668    20480533.858   107625928.221 7     -2349.574          42.750  
  20480534.618    20480534.418    83864361.497 7     -1830.825          42.750  
                                                                
  21719297.368    21719296.808   114135683.177 6      1102.561          38.000  
                  21719298.748    88936898.446 6       859.132          38.000  
                                                                
  21404638.508    21404639.908   114500387.469 7      1884.281          45.000  
  21404652.998    21404650.058    89055853.792 5      1465.496          34.500  
                                                                
  22044769.443    22044772.413   117635160.698 6       595.761          39.250  
  22044780.123    22044782.143    91494017.555 5       463.472          31.000  
                                                                
 14 10 17  7 59 35.0000000  0 16G 3R 7R 5R21G 5R12G31R11G25R13G16R22-0.000306223
                                G29G21R23R 6
  21399531.885    21399531.955   112455300.010 4      1369.192          28.000  
                  21399534.215    87627508.955 4      1066.911          28.000  
                                                                
  23454302.755    23454310.585   125552800.428 5      3014.743          30.500  
                                                                                
                                                                
  23312605.757    23312574.097   124619302.109 3     -3027.703          19.750  
                                                                                
                                                                
  21884128.124    21884127.694   117106378.846 6     -4214.395          40.250  
  21884138.314    21884138.874    91082741.102 6     -3277.929          39.500  
                                                                
  23235947.779    23235951.259   122105737.005 4     -1505.232          24.000  
  23235949.069    23235949.779    95147337.144 4     -1172.892          24.000  
                                                                
  20085499.823    20085501.033   107293124.683 7     -3536.773          45.500  
  20085507.823    20085509.543    83450210.715 7     -2750.796          42.250  
                                                                
  22443513.813    22443512.533   117941448.022 5     -3337.680          34.000  
  22443516.273    22443515.973    91902430.795 5     -2600.867          34.000  
                                                                
  23778690.552    23778690.872   127066086.096 6     -5584.042          41.000  
  23778704.162    23778705.882    98829168.361 5     -4343.120          35.750  
                                                                
  22997997.708    22997997.708   120855287.065 5     -4312.209          32.750  
  22998005.548    22998003.888    94172950.125 5     -3360.168          32.750  
  22998008.008    90249075.269 8     -3220.106          50.250  
  20641862.665    20641861.575   110226391.868 6       883.268          41.750  
  20641869.835    20641870.245    85731632.981 7       686.945          44.250  
                                                                
  23438757.911    23438756.531   123171506.800 4      2400.063          27.500  
                  23438757.031    95977794.868 4      1870.323          27.500  
                                                                
  19235684.612    19235684.582   102681380.383 8     -1604.026          53.500  
  19235691.412    19235690.812    79863296.353 8     -1247.548          48.000  
                                                                
  20482770.614    20482770.424   107637680.512 7     -2351.021          43.000  
  20482771.364    20482770.544    83873519.121 7     -1831.935          43.000  
                                                                
  21718249.804    21718248.804   114130175.065 6      1100.898          38.750  
                  21718250.544    88932606.424 6       857.843          38.750  
                                                                
  21402880.198    21402880.208   114490970.253 7      1882.933          46.250  
  21402892.028    21402891.118    89048529.326 5      1464.552          35.000  
                                                                
  22044215.717    22044215.147   117632192.488 6       591.948          38.500  
  22044228.717    22044224.887    91491708.932 5       460.250          32.000  
                                                                
 14 10 17  7 59 40.0000000  0 16G 3R 7R 5R21G 5R12G31R11G25R13G16R22-0.000303373
                                G29G21R23R 6
  21398230.327    21398230.787   112448461.633 4      1366.490          27.000  
                  21398232.127    87622180.345 4      1064.812          27.000  
                                                                
  23451501.824    23451495.484   125537730.114 4      3013.899          29.500  
                                                                                
                                                                
  23315436.229    23315449.259   124634447.758 3     -3031.568          18.500  
                                                                                
                                                                
  21888069.790    21888065.960   117127453.223 6     -4215.103          39.250  
  21888077.880    21888076.890    91099132.264 6     -3278.269          39.250  
                                                                
  23237380.601    23237382.191   122113272.482 3     -1508.757          23.500  
  23237382.351    23237381.451    95153208.934 3     -1175.654          23.500  
                                                                
  20088814.769    20088813.189   107310819.338 7     -3540.871          45.500  
  20088822.889    20088822.439    83463973.205 7     -2754.009          42.500  
                                                                
  22446690.686    22446690.356   117958143.155 5     -3340.004          34.500  
  22446692.786    22446692.726    91915439.961 5     -2602.589          34.500  
                                                                
  23783915.542    23783917.392   127094008.599 5     -5584.508          35.250  
  23783932.882    23783930.452    98850885.722 6     -4343.652          37.000  
                                                                
  23002102.017    23002100.547   120876852.168 5     -4313.671          30.250  
  23002108.547    23002108.407    94189754.099 5     -3361.221          30.250  
  23002111.387    90265179.045 8     -3221.196          50.000  
  20641037.510    20641036.530   110221987.428 6       878.860          41.500  
  20641045.220    20641045.470    85728207.313 7       683.556          43.750  
                                                                
  23436473.180    23436473.390   123159510.345 4      2398.964          27.500  
                  23436475.280    95968446.951 4      1869.360          27.500  
                                                                
  19237188.904    19237188.144   102689407.909 8     -1606.694          53.000  
  19237193.914    19237193.894    79869539.974 7     -1249.657          47.250  
                                                                
  20485008.346    20485008.276   107649441.280 7     -2352.973          43.750  
  20485008.816    20485008.786    83882683.336 7     -1833.509          43.750  
                                                                
  21717202.554    21717202.264   114124676.533 6      1098.810          38.750  
                  21717204.034    88928321.874 6       856.221          38.750  
                                                                
  21401121.007    21401120.757   114481561.078 7      1881.119          45.250  
  21401130.147    21401129.987    89041211.070 5      1463.062          34.500  
                                                                
  22043663.748    22043664.068   117629244.065 6       587.867          38.250  
  22043667.908    22043672.408    91489415.720 5       457.095          33.250  
                                                                
 14 10 17  7 59 45.0000000  0 16G 3R 7R 5R21G 5R12G31R11G25R13G16R22-0.000300525
                                G29G21R23R 6
  21396930.466    21396930.596   112441634.793 4      1364.016          27.000  
                  21396932.776    87616860.748 4      1062.863          27.000  
                                                                
