     2.11           OBSERVATION DATA    M (MIXED)           RINEX VERSION / TYPE
TPP                 Reference Data Shop 17-OCT-14 12:05     PGM / RUN BY / DATE 
KRA1                                                        MARKER NAME         
KRA1                                                        MARKER NUMBER       
Malopolski System PoUrzad Marszalkowski Wojewodztwa MalopolsOBSERVER / AGENCY   
                    TRIMBLE NETR5                           REC # / TYPE / VERS 
074469              TRM57971.00     NONE                    ANT # / TYPE        
  3856938.9295  1397750.2057  4867717.3326                  APPROX POSITION XYZ 
        0.0000        0.0000        0.0000                  ANTENNA: DELTA H/E/N
     1     1     0                                          WAVELENGTH FACT L1/2
    10    C1    P1    L1    D1    S1    C2    P2    L2    D2# / TYPES OF OBSERV 
          S2                                                # / TYPES OF OBSERV 
     5.000                                                  INTERVAL            
     0                                                      RCV CLOCK OFFS APPL 
    16                                                      LEAP SECONDS        
  2014    10    17    07    30   00.0000000     GPS         TIME OF FIRST OBS   
                                                            END OF HEADER       
 14 10 17  7 30  0.0000000  0 15G02G05G16G21G25G29G31R05R06R11R12R13 0.000000000
                                R21R22R23                   
  24670953.633                   129646698.17816     -3199.096          42.900  
                  24670962.668   101023346.71716                        22.800  
  23320863.578                   122552006.07316       562.450          44.300  
  23320873.965    23320873.609    95495126.28917                        29.200  
  24687390.820                   129733096.88314      3518.467          37.400  
                  24687399.035   101090741.58515                        15.600  
  22597595.141                   118751254.45817      2638.816          48.500  
                  22597601.129    92533418.50817                        32.500  
  22022090.750                   115726979.12417     -2880.579          47.300  
  22022101.840                                                                  
  20194400.500                   106122235.01217      -781.328          51.200  
  20194406.492    20194406.547    82692697.47519                        43.800  
  21858365.672                   114866426.94317     -1526.608          51.000  
  21858371.781    21858371.309    89506323.54818                        37.400  
  22935156.578    22935157.023   122601519.27717      -670.981          48.200  
                  22935165.383    95356811.55918      -521.867          41.000  
  22854362.180    22854360.980   121955575.00217      2749.455          45.800  
                  22854369.457    94854194.96318      2138.465          38.600  
  22355606.461    22355606.555   119461572.26316     -4382.429          44.800  
                  22355617.141    92914506.50018     -3408.552          36.800  
  19552963.289    19552961.621   104448251.93517     -1090.972          47.200  
                  19552969.043    81237643.16119      -848.528          46.300  
  21558729.945    21558728.277   115122421.05917      3104.207          47.200  
                  21558734.523    89539651.71819      2414.385          42.900  
  20935089.758    20935089.262   112027961.79318     -2936.615          50.300  
                  20935096.566    87132790.48719     -2284.035          45.900  
  19252093.125    19252092.746   102769063.42918       262.127          52.400  
                  19252098.293    79931414.61319       203.882          49.800  
  22515906.414    22515906.742   120445699.90117      3340.064          46.700  
                  22515916.859    93679429.83819      2597.827          42.400  
 14 10 17  7 30  5.0000000  0 15G02G05G16G21G25G29G31R05R06R11R12R13 0.000000000
                                R21R22R23                   
  24673997.891                   129662695.586 6     -3199.739          43.200  
                  24674007.043   101035812.212 6                        25.300  
  23320330.820                   122549203.006 6       559.364          44.100  
  23320340.270    23320340.148    95492942.092 7                        29.700  
  24684043.680                   129715505.177 4      3518.292          38.100  
                  24684051.367   101077033.882 5                        16.300  
  22595084.984                   118738064.784 7      2637.338          48.400  
                  22595091.617    92523140.847 7                        32.000  
  22024832.609                   115741386.870 7     -2882.241          48.300  
  22024843.172                                                                  
  20195144.961                   106126147.419 7      -783.260          51.500  
  20195151.832    20195151.828    82695746.096 9                        43.700  
  21859819.789                   114874068.289 7     -1529.395          50.800  
  21859825.605    21859825.602    89512277.829 8                        36.800  
  22935786.656    22935786.633   122604886.706 7      -675.180          48.500  
                  22935794.875    95359430.660 8      -525.139          40.900  
  22851787.758    22851786.090   121941835.977 7      2746.673          46.100  
                  22851794.566    94843509.076 8      2136.297          38.700  
  22359708.102    22359707.488   119483488.306 6     -4383.765          44.900  
                  22359718.195    92931552.279 8     -3409.588          36.900  
  19553986.773    19553985.809   104453720.245 7     -1095.507          47.200  
                  19553992.996    81241896.280 9      -852.055          45.700  
  21555824.125    21555823.277   115106908.781 7      3101.231          47.000  
                  21555829.527    89527586.619 9      2412.070          42.900  
  20937833.930    20937833.668   112042648.463 8     -2937.847          50.100  
                  20937840.855    87144213.433 9     -2284.988          45.600  
  19251849.125    19251849.570   102767760.918 8       259.387          52.800  
                  19251855.230    79930401.541 9       201.749          49.300  
  22512785.766    22512785.270   120429003.246 7      3338.830          48.000  
                  22512795.625    93666443.562 9      2596.871          42.800  
 14 10 17  7 30 10.0000000  0 15G02G05G16G21G25G29G31R05R06R11R12R13 0.000000000
                                R21R22R23                   
  24677042.242                   129678696.779 6     -3200.463          43.300  
                  24677051.688   101048280.647 6                        22.800  
  23319800.383                   122546415.916 6       556.223          43.800  
  23319810.008    23319810.004    95490770.337 7                        29.500  
  24680696.063                   129697915.079 4      3517.983          37.800  
                  24680704.160   101063327.220 5                        14.800  
  22592576.594                   118724883.009 7      2635.799          48.100  
                  22592583.227    92512869.342 7                        32.200  
  22027576.234                   115755803.273 6     -2883.916          46.600  
  22027586.504                                                                  
  20195891.336                   106130069.861 7      -785.229          50.800  
  20195897.621    20195897.559    82698802.537 9                        43.800  
  21861276.523                   114881724.103 7     -1532.268          50.500  
  21861282.633    21861282.629    89518243.388 8                        37.100  
  22936421.297    22936419.980   122608275.729 7      -679.446          49.000  
                  22936427.988    95362066.551 8      -528.452          40.200  
  22849215.305    22849213.637   121928111.424 7      2743.812          45.800  
                  22849222.230    94832834.441 8      2134.075          38.900  
  22363810.727    22363810.230   119505411.469 7     -4385.136          45.100  
                  22363820.586    92948603.578 8     -3410.647          36.400  
  19555015.031    19555014.066   104459211.620 7     -1100.081          47.300  
                  19555021.605    81246167.339 9      -855.616          45.800  
  21552922.836    21552921.285   115091411.974 7      3098.199          47.000  
                  21552927.297    89515533.539 9      2409.712          42.700  
  20940580.125    20940577.988   112057341.859 8     -2939.142          50.500  
                  20940585.293    87155641.621 9     -2285.996          45.500  
  19251608.461    19251607.027   102766472.665 8       256.591          52.700  
                  19251612.453    79929399.573 9       199.570          49.500  
  22509666.344    22509665.145   120412313.392 7      3337.506          47.600  
                  22509675.500    93653462.573 9      2595.836          42.700  
 14 10 17  7 30 15.0000000  0 15G02G05G16G21G25G29G31R05R06R11R12R13 0.000000000
                                R21R22R23                   
  24680087.297                   129694701.823 6     -3201.340          42.900  
                  24680097.680   101060752.097 6                        23.300  
  23319272.586                   122543644.828 6       552.921          44.700  
  23319281.625    23319281.914    95488611.053 7                        29.400  
  24677349.086                   129680326.537 4      3517.552          37.700  
                  24677356.715   101049621.858 5                        15.600  
  22590069.094                   118711709.132 7      2634.123          47.800  
                  22590076.078    92502603.997 7                        32.300  
  22030321.086                   115770228.375 6     -2885.718          46.800  
  22030331.766                                                                  
  20196639.391                   106134002.344 7      -787.327          50.600  
  20196645.383    20196645.672    82701866.811 9                        43.600  
  21862736.172                   114889394.361 7     -1535.235          50.500  
  21862741.637    21862741.984    89524220.207 8                        38.100  
  22937059.680    22937058.832   122611686.178 7      -683.837          48.900  
                  22937066.840    95364719.108 8      -531.869          40.100  
  22846646.109    22846645.379   121914401.453 7      2740.786          45.100  
                  22846653.621    94822171.152 8      2131.718          38.900  
  22367914.805    22367914.664   119527341.634 6     -4386.622          45.000  
                  22367925.016    92965660.352 8     -3411.815          36.100  
  19556047.641    19556046.441   104464726.066 7     -1104.752          46.400  
                  19556053.746    81250456.345 9      -859.248          46.300  
  21550022.844    21550021.762   115075930.533 7      3095.021          47.000  
                  21550028.129    89503492.426 9      2407.234          42.700  
  20943326.805    20943326.074   112072041.919 8     -2940.579          50.100  
                  20943333.613    87167075.003 9     -2287.114          45.700  
  19251369.344    19251368.965   102765198.666 8       253.638          52.300  
                  19251374.629    79928408.684 9       197.275          49.500  
  22506547.891    22506547.395   120395630.292 7      3336.080          48.300  
                  22506557.633    93640486.844 9      2594.728          43.300  
 14 10 17  7 30 20.0000000  0 15G02G05G16G21G25G29G31R05R06R11R12R13 0.000000000
                                R21R22R23                   
  24683133.852                   129710710.770 6     -3202.026          43.100  
                  24683143.707   101073226.575 6                        22.600  
  23318748.930                   122540889.858 6       549.767          43.700  
  23318758.145    23318758.141    95486464.333 7                        29.100  
  24674002.547                   129662739.672 4      3517.346          37.700  
                  24674010.410   101035917.776 5                        15.600  
  22587563.703                   118698543.350 7      2632.587          47.900  
                  22587570.570    92492344.950 7                        33.000  
  22033068.211                   115784662.319 7     -2887.409          49.000  
  22033077.777                                                                  
  20197389.914                   106137945.024 7      -789.280          51.500  
  20197396.844    20197396.605    82704939.022 9                        44.100  
  21864198.383                   114897079.226 7     -1538.064          50.300  
  21864204.258    21864204.430    89530208.406 8                        37.600  
  22937700.602    22937700.578   122615118.273 7      -688.062          48.800  
                  22937708.469    95367388.519 8      -535.158          40.700  
  22844080.570    22844078.316   121900706.199 7      2737.932          45.800  
                  22844086.676    94811519.314 8      2129.501          38.800  
  22372020.344    22372019.730   119549278.951 7     -4387.975          45.600  
                  22372029.852    92982722.667 8     -3412.863          36.400  
  19557083.422    19557082.340   104470263.647 7     -1109.312          47.400  
                  19557089.645    81254763.335 9      -862.793          45.900  
  21547127.938    21547125.801   115060464.557 7      3092.034          47.200  
                  21547132.164    89491463.328 9      2404.917          42.400  
  20946075.594    20946075.215   112086748.853 8     -2941.882          50.500  
                  20946082.402    87178513.706 9     -2288.125          46.000  
  19251133.227    19251131.676   102763938.934 8       250.885          52.900  
                  19251137.453    79927428.892 9       195.132          49.800  
  22503430.039    22503429.309   120378954.026 7      3334.781          47.800  
                  22503439.664    93627516.420 9      2593.713          42.800  
 14 10 17  7 30 25.0000000  0 15G02G05G16G21G25G29G31R05R06R11R12R13 0.000000000
                                R21R22R23                   
  24686180.781                   129726723.353 6     -3202.758          43.300  
                  24686190.813   101085703.892 6                        22.000  
  23318227.031                   122538150.759 6       546.587          43.800  
  23318237.652    23318236.770    95484329.979 7                        29.400  
  24670656.148                   129645154.280 4      3517.003          38.100  
                  24670664.480   101022214.819 5                        15.600  
  22585060.156                   118685385.409 7      2631.022          47.600  
                  22585066.906    92482092.022 7                        32.500  
  22035816.633                   115799104.795 7     -2889.125          48.700  
  22035826.141                                                                  
  20198142.031                   106141897.637 7      -791.269          51.900  
  20198148.258    20198148.313    82708018.978 9                        43.600  
  21865663.008                   114904778.458 7     -1540.950          50.200  
  21865669.586    21865669.465    89536207.799 8                        37.100  
  22938348.422    22938346.754   122618571.690 7      -692.348          48.200  
                  22938354.762    95370074.499 8      -538.489          39.800  
  22841517.109    22841515.090   121887025.313 7      2735.115          46.100  
                  22841523.215    94800878.643 8      2127.306          39.300  
  22376127.422    22376126.926   119571223.243 7     -4389.349          45.600  
                  22376136.695    92999790.404 8     -3413.923          36.700  
  19558124.539    19558123.105   104475824.267 7     -1113.965          47.500  
                  19558130.410    81259088.255 9      -866.416          45.900  
  21544232.813    21544231.965   115045014.011 7      3088.934          46.400  
                  21544238.332    89479446.236 9      2402.511          43.300  
  20948825.906    20948823.770   112101462.365 8     -2943.191          51.000  
                  20948830.957    87189957.539 9     -2289.142          45.900  
  19250900.047    19250899.668   102762693.291 8       248.043          52.200  
                  19250905.098    79926460.062 9       192.915          49.200  
  22500313.727    22500312.879   120362284.605 7      3333.405          47.900  
                  22500323.234    93614551.328 9      2592.645          43.200  
 14 10 17  7 30 30.0000000  0 15G02G05G16G21G25G29G31R05R06R11R12R13 0.000000000
                                R21R22R23                   
  24689229.039                   129742740.079 6     -3203.591          43.300  
                  24689238.953   101098184.446 6                        23.600  
  23317709.586                   122535428.052 6       543.286          43.900  
  23317719.328    23317718.973    95482208.379 7                        28.500  
  24667309.789                   129627570.873 4      3516.555          37.300  
                  24667317.652   101008513.519 5                        17.400  
  22582557.781                   118672235.768 7      2629.335          48.000  
                  22582564.180    92471845.567 7                        31.900  
  22038566.594                   115813556.329 7     -2890.974          47.400  
  22038576.570                                                                  
  20198896.172                   106145860.648 7      -793.378          50.800  
  20198902.574    20198902.453    82711107.037 9                        43.900  
  21867131.008                   114912492.500 7     -1543.939          50.100  
  21867137.703    21867137.582    89542218.730 8                        37.500  
  22938997.680    22938996.832   122622047.039 7      -696.773          48.500  
                  22939004.957    95372777.538 8      -541.935          39.900  
  22838954.703    22838953.152   121873359.313 7      2732.036          45.500  
                  22838962.332    94790249.550 8      2124.906          40.200  
  22380236.016    22380234.582   119593174.805 7     -4390.835          45.800  
                  22380244.234    93016863.813 8     -3415.085          36.100  
  19559170.000    19559169.270   104481408.210 7     -1118.637          47.100  
                  19559176.574    81263431.314 9      -870.046          45.900  
  21541343.492    21541342.059   115029579.242 7      3085.751          46.600  
                  21541348.426    89467441.408 9      2400.032          42.900  
  20951575.719    20951575.695   112116182.899 8     -2944.655          50.900  
                  20951582.645    87201406.844 9     -2290.285          45.600  
  19250669.547    19250668.582   102761462.268 8       245.092          52.500  
                  19250674.125    79925502.591 9       190.627          48.900  
  22497198.695    22497198.555   120345622.290 7      3331.949          47.400  
                  22497208.789    93601591.751 9      2591.519          43.200  
 14 10 17  7 30 35.0000000  0 15G02G05G16G21G25G29G31R05R06R11R12R13 0.000000000
                                R21R22R23                   
  24692277.969                   129758760.376 6     -3204.258          43.500  
                  24692287.883   101110667.771 6                        22.800  
  23317194.586                   122532721.145 6       540.212          44.100  
  23317203.391    23317202.977    95480099.119 7                        29.600  
  24663964.008                   129609988.845 3      3516.390          36.600  
                  24663972.281   100994813.207 5                        15.600  
  22580057.156                   118659093.929 7      2627.818          47.200  
                  22580063.789    92461605.189 7                        32.300  
  22041317.977                   115828016.330 7     -2892.583          47.900  
  22041328.422                                                                  
  20199651.898                   106149833.512 7      -795.276          51.000  
  20199658.359    20199658.297    82714202.771 9                        43.800  
  21868602.133                   114920220.768 7     -1546.688          49.800  
  21868608.242    21868608.414    89548240.740 8                        37.400  
  22939651.711    22939651.449   122625543.701 7      -700.923          48.500  
                  22939659.340    95375497.151 8      -545.160          40.200  
  22836396.313    22836395.113   121859707.854 7      2729.216          45.200  
                  22836404.414    94779631.777 8      2122.717          40.000  
  22384344.797    22384344.066   119615133.205 7     -4392.140          45.900  
                  22384352.898    93033942.535 8     -3416.097          35.600  
  19560219.727    19560218.879   104487015.066 7     -1123.099          46.700  
                  19560225.949    81267792.192 9      -873.518          46.200  
  21538455.883    21538454.918   115014159.873 7      3082.721          47.300  
                  21538461.168    89455448.575 9      2397.670          42.400  
  20954327.914    20954326.832   112130909.886 8     -2945.850          50.500  
                  20954334.137    87212861.154 9     -2291.215          45.500  
  19250441.094    19250439.895   102760245.263 8       242.360          52.400  
                  19250445.438    79924556.040 9       188.499          49.200  
  22494084.500    22494085.180   120328966.634 7      3330.707          47.400  
                  22494095.887    93588637.364 9      2590.547          43.300  
 14 10 17  7 30 40.0000000  0 15G02G05G16G21G25G29G31R05R06R11R12R13 0.000000000
                                R21R22R23                   
  24695327.242                   129774784.604 6     -3205.120          43.400  
                  24695336.688   101123154.166 6                        22.300  
  23316682.766                   122530030.457 6       536.882          44.200  
  23316690.867    23316690.688    95478002.476 7                        29.100  
  24660618.578                   129592408.656 4      3515.943          37.900  
                  24660626.676   100981114.329 5                        15.600  
  22577558.141                   118645960.197 7      2626.133          47.400  
                  22577564.363    92451371.129 7                        31.900  
  22044071.102                   115842485.175 7     -2894.432          47.600  
  22044081.781                                                                  
  20200410.242                   106153816.615 7      -797.394          51.200  
  20200417.055    20200416.934    82717306.487 9                        43.900  
  21870075.664                   114927963.654 7     -1549.707          49.800  
  21870081.715    21870081.711    89554274.147 8                        37.400  
  22940309.227    22940308.848   122629061.961 7      -705.360          47.900  
                  22940316.855    95378233.575 8      -548.615          39.300  
  22833839.703    22833838.855   121846071.121 6      2726.211          44.300  
                  22833848.391    94769025.444 8      2120.380          40.400  
  22388455.750    22388454.316   119637098.720 7     -4393.617          46.300  
                  22388463.496    93051026.785 8     -3417.244          35.300  
  19561273.000    19561271.801   104492645.110 7     -1127.795          46.900  
                  19561279.105    81272171.113 9      -877.175          46.400  
  21535569.797    21535569.891   114998756.081 7      3079.538          47.000  
                  21535576.254    89443467.841 9      2395.197          42.600  
  20957081.211    20957080.363   112145643.679 8     -2947.276          50.200  
                  20957088.020    87224320.758 9     -2292.325          45.300  
  19250215.867    19250215.961   102759042.676 8       239.414          52.700  
                  19250221.270    79923620.695 9       186.208          48.900  
  22490971.625    22490972.656   120312317.863 7      3329.243          47.600  
                  22490983.012    93575688.329 9      2589.408          43.300  
 14 10 17  7 30 45.0000000  0 15G02G05G16G21G25G29G31R05R06R11R12R13 0.000000000
                                R21R22R23                   
  24698376.867                   129790812.558 6     -3205.893          42.900  
                  24698387.426   101135643.463 6                        22.500  
  23316173.516                   122527355.760 6       533.642          44.900  
  23316182.379    23316182.141    95475918.311 7                        29.300  
  24657274.336                   129574830.099 4      3515.552          37.700  
                  24657282.023   100967416.729 5                        15.600  
  22575059.789                   118632834.418 7      2624.523          48.400  
                  22575066.949    92441143.258 7                        31.900  
  22046826.156                   115856962.656 7     -2896.194          48.600  
  22046836.426                                                                  
  20201170.109                   106157809.732 7      -799.429          51.700  
  20201176.688    20201176.742    82720417.997 9                        44.600  
  21871551.734                   114935720.934 7     -1552.625          50.200  
  21871557.961    21871557.957    89560318.770 8                        37.400  
  22940971.094    22940971.188   122632601.649 7      -709.647          47.600  
                  22940979.195    95380986.654 8      -551.945          39.800  
  22831287.586    22831286.270   121832448.881 6      2723.249          44.500  
                  22831296.391    94758430.392 8      2118.076          40.700  
  22392567.164    22392566.785   119659071.152 7     -4395.058          45.500  
                  22392575.852    93068116.424 8     -3418.373          35.500  
  19562331.273    19562331.133   104498298.208 7     -1132.484          46.900  
                  19562338.316    81276567.955 9      -880.821          46.100  
  21532689.500    21532688.301   114983367.859 7      3076.395          47.000  
                  21532695.020    89431499.222 9      2392.751          42.800  
  20959836.086    20959835.004   112160384.102 8     -2948.610          50.500  
                  20959842.191    87235785.519 9     -2293.362          45.500  
  19249993.172    19249993.031   102757854.143 8       236.567          52.500  
                  19249998.457    79922696.280 9       184.001          49.500  
  22487861.945    22487861.684   120295675.954 7      3327.812          47.600  
                  22487872.039    93562744.641 9      2588.296          43.100  
 14 10 17  7 30 50.0000000  0 15G02G05G16G21G25G29G31R05R06R11R12R13 0.000000000
                                R21R22R23                   
  24701427.688                   129806844.125 6     -3206.617          43.000  
                  24701438.129   101148135.573 6                        24.100  
  23315669.125                   122524696.909 6       530.485          44.500  
  23315676.406    23315676.227    95473846.488 7                        30.200  
  24653929.336                   129557253.005 4      3515.290          37.900  
                  24653936.613   100953720.301 5                        16.900  
  22572564.117                   118619716.484 7      2622.957          48.400  
                  22572570.340    92430921.505 7                        32.400  
  22049583.086                   115871448.612 7     -2897.885          48.200  
  22049593.180                                                                  
  20201931.570                   106161812.729 7      -801.405          51.400  
  20201938.500    20201938.438    82723537.220 9                        43.700  
  21873030.844                   114943492.502 7     -1555.484          50.100  
  21873037.188    21873037.125    89566374.523 8                        37.100  
  22941637.672    22941637.531   122636162.602 7      -713.905          47.800  
                  22941645.301    95383756.278 8      -555.258          39.400  
  22828736.445    22828736.422   121818841.285 6      2720.334          44.700  
                  22828746.656    94747846.718 8      2115.812          39.900  
  22396679.680    22396678.949   119681050.381 7     -4396.388          45.400  
                  22396688.719    93085211.351 8     -3419.403          35.800  
  19563394.039    19563393.543   104503974.186 7     -1137.057          47.500  
                  19563400.730    81280982.586 9      -884.375          46.500  
  21529810.203    21529809.004   114967994.994 7      3073.337          46.500  
                  21529815.488    89419542.550 9      2390.372          42.400  
  20962591.727    20962591.586   112175131.007 8     -2949.937          50.500  
                  20962599.121    87247255.336 9     -2294.399          45.300  
  19249773.313    19249772.582   102756679.750 8       233.737          52.400  
                  19249778.129    79921782.858 9       181.796          49.000  
  22484752.563    22484751.949   120279040.645 7      3326.521          47.700  
                  22484761.953    93549806.073 9      2587.294          43.300  
 14 10 17  7 30 55.0000000  0 15G02G05G16G21G25G29G31R05R06R11R12R13 0.000000000
                                R21R22R23                   
  24704479.289                   129822879.556 6     -3207.383          43.000  
                  24704489.086   101160630.670 6                        24.700  
  23315165.039                   122522054.271 6       527.258          44.600  
  23315172.613    23315172.785    95471787.287 7                        29.200  
  24650584.266                   129539677.720 4      3514.919          38.000  
                  24650593.125   100940025.254 5                        15.600  
  22570068.758                   118606606.703 7      2621.331          48.000  
                  22570075.391    92420706.102 7                        31.600  
  22052341.289                   115885943.387 7     -2899.637          47.400  
  22052351.324                                                                  
  20202695.188                   106165825.934 7      -803.433          50.700  
  20202701.414    20202701.469    82726664.380 9                        43.500  
  21874512.383                   114951278.640 7     -1558.375          50.500  
  21874518.727    21874518.723    89572441.640 8                        37.200  
  22942307.992    22942307.613   122639745.312 7      -718.250          48.600  
                  22942315.387    95386542.820 8      -558.637          39.400  
  22826190.297    22826188.863   121805248.551 6      2717.413          44.500  
                  22826198.867    94737274.618 8      2113.533          39.800  
  22400794.359    22400794.219   119703036.671 7     -4397.819          45.700  
                  22400803.984    93102311.755 8     -3420.520          36.400  
  19564461.344    19564460.848   104509673.444 7     -1141.704          47.900  
                  19564468.035    81285415.342 9      -887.990          46.000  
  21526934.016    21526933.051   114952637.848 7      3070.190          46.200  
                  21526939.418    89407598.103 9      2387.922          41.900  
  20965348.820    20965348.324   112189884.748 8     -2951.303          50.300  
                  20965356.098    87258730.446 9     -2295.456          45.300  
  19249556.781    19249555.348   102755519.720 8       230.894          52.500  
                  19249560.773    79920880.617 9       179.583          49.700  
  22481644.578    22481644.082   120262412.346 7      3325.140          48.100  
                  22481653.617    93536872.971 9      2586.217          43.400  
 14 10 17  7 31  0.0000000  0 15G02G05G16G21G25G29G31R05R06R11R12R13 0.000000000
                                R21R22R23                   
  24707531.672                   129838918.688 6     -3208.182          43.000  
                  24707541.117   101173128.695 6                        22.600  
  23314665.703                   122519427.627 6       523.979          45.400  
  23314673.688    23314673.449    95469740.555 7                        29.400  
  24647240.164                   129522103.993 4      3514.523          38.100  
                  24647248.145   100926331.480 5                        16.900  
  22567576.008                   118593504.897 7      2619.643          47.600  
                  22567582.406    92410496.918 7                        31.400  
  22055100.484                   115900446.748 7     -2901.427          47.300  
  22055111.457                                                                  
  20203461.000                   106169849.059 7      -805.479          51.300  
  20203467.637    20203467.574    82729799.281 9                        43.600  
  21875997.078                   114959079.185 7     -1561.327          50.500  
  21876003.832    21876003.301    89578519.969 8                        37.700  
  22942982.063    22942981.449   122643349.337 7      -722.578          48.000  
                  22942989.457    95389345.946 8      -562.003          39.800  
  22823646.211    22823644.777   121791670.373 6      2714.401          44.900  
                  22823654.313    94726713.817 8      2111.201          40.400  
  22404910.688    22404909.605   119725029.889 7     -4399.269          46.000  
                  22404919.258    93119417.553 8     -3421.640          35.600  
  19565532.805    19565531.957   104515395.567 7     -1146.358          47.000  
                  19565539.262    81289865.875 9      -891.615          46.200  
  21524061.031    21524059.949   114937296.136 7      3067.056          46.300  
                  21524066.434    89395665.661 9      2385.488          42.800  
  20968107.031    20968106.301   112204644.994 8     -2952.671          50.700  
                  20968113.605    87270210.620 9     -2296.519          45.300  
  19249341.203    19249340.355   102754373.881 8       227.952          52.000  
                  19249346.020    79919989.405 9       177.297          49.400  
  22478537.242    22478536.746   120245790.800 7      3323.661          48.400  
                  22478546.398    93523945.106 9      2585.069          43.900  
 14 10 17  7 31  5.0000000  0 15G02G05G16G21G25G29G31R05R06R11R12R13 0.000000000
                                R21R22R23                   
  24710584.492                   129854961.727 6     -3208.835          42.600  
                  24710594.289   101185629.738 6                        24.000  
  23314168.766                   122516817.179 6       520.845          45.100  
  23314175.871    23314175.750    95467706.435 7                        29.100  
  24643897.125                   129504532.082 4      3514.311          38.300  
                  24643904.402   100912639.056 5                        16.900  
  22565084.352                   118580411.276 7      2618.126          48.400  
                  22565090.574    92400294.101 7                        32.800  
  22057862.328                   115914958.923 6     -2903.091          46.600  
  22057872.539                                                                  
  20204228.813                   106173882.395 7      -807.421          51.000  
  20204235.449    20204235.270    82732942.134 9                        43.900  
  21877483.938                   114966894.272 7     -1564.129          50.000  
  21877490.281    21877489.926    89584609.640 8                        38.100  
  22943659.914    22943659.535   122646975.087 7      -726.828          47.600  
                  22943667.660    95392165.968 8      -565.312          39.100  
  22821103.977    22821101.957   121778107.299 6      2711.484          43.900  
                  22821112.430    94716164.766 8      2108.924          39.700  
  22409029.023    22409026.652   119747030.152 7     -4400.568          46.400  
                  22409036.652    93136528.829 8     -3422.658          35.900  
  19566608.438    19566607.238   104521140.903 7     -1150.883          47.300  
                  19566614.309    81294334.464 9      -895.128          46.600  
  21521190.797    21521190.301   114921970.272 7      3063.960          46.400  
                  21521196.785    89383745.545 9      2383.085          42.800  
  20970866.820    20970865.504   112219412.064 8     -2953.913          51.000  
                  20970872.809    87281696.116 9     -2297.485          45.200  
  19249129.266    19249128.770   102753242.443 8       225.222          52.700  
                  19249134.434    79919109.394 9       175.172          49.700  
  22475431.930    22475430.145   120229176.237 7      3322.428          48.400  
                  22475439.914    93511022.684 9      2584.106          43.400  
 14 10 17  7 31 10.0000000  0 15G02G05G16G21G25G29G31R05R06R11R12R13 0.000000000
                                R21R22R23                   
  24713637.320                   129871008.402 6     -3209.629          42.800  
                  24713647.820   101198133.625 6                        22.900  
  23313675.211                   122514222.673 6       517.622          44.600  
  23313682.023    23313682.078    95465684.754 7                        29.100  
  24640553.461                   129486961.769 4      3513.954          38.000  
                  24640560.621   100898947.836 5                        15.600  
  22562594.406                   118567325.582 7      2616.495          48.100  
                  22562600.102    92390097.462 7                        32.500  
  22060625.516                   115929479.647 6     -2904.827          46.500  
  22060635.785                                                                  
  20204997.586                   106177925.684 7      -809.466          50.900  
  20205004.164    20205004.160    82736092.749 9                        43.700  
  21878973.328                   114974723.668 7     -1567.024          49.500  
  21878980.258    21878980.137    89590710.456 8                        37.400  
  22944343.078    22944341.879   122650622.111 7      -731.125          48.100  
                  22944349.652    95395002.529 8      -568.650          39.400  
  22818564.664    22818562.879   121764558.758 6      2708.528          43.800  
                  22818573.820    94705627.060 8      2106.625          39.900  
  22413147.320    22413145.770   119769037.140 7     -4401.940          46.400  
                  22413155.422    93153645.325 8     -3423.720          35.400  
  19567687.633    19567687.254   104526909.190 7     -1155.516          47.800  
                  19567694.324    81298820.899 9      -898.737          46.300  
  21518323.719    21518322.520   114906659.913 7      3060.855          46.000  
                  21518329.121    89371837.486 9      2380.668          42.800  
  20973627.867    20973627.605   112234185.585 8     -2955.237          50.800  
                  20973634.793    87293186.626 9     -2298.516          45.400  
  19248920.578    19248919.379   102752124.960 8       222.350          53.000  
                  19248924.922    79918240.240 9       172.934          49.300  
  22472326.117    22472326.211   120212568.461 7      3321.005          47.900  
                  22472335.977    93498105.523 9      2582.999          43.300  
 14 10 17  7 31 15.0000000  0 15G02G05G16G21G25G29G31R05R06R11R12R13 0.000000000
                                R21R22R23                   
  24716692.305                   129887059.038 6     -3210.354          43.000  
                  24716702.043   101210640.580 6                        22.500  
  23313184.563                   122511644.502 6       514.411          45.100  
  23313190.848    23313191.137    95463675.789 7                        29.400  
  24637209.789                   129469393.478 4      3513.560          38.600  
                  24637217.887   100885258.246 5                        15.600  
  22560105.836                   118554248.181 7      2614.893          48.400  
                  22560112.000    92379907.285 7                        32.700  
  22063390.273                   115944009.249 6     -2906.557          46.900  
  22063401.012                                                                  
  20205769.555                   106181979.287 7      -811.464          51.200  
  20205776.426    20205776.422    82739251.400 9                        44.500  
  21880465.773                   114982567.714 7     -1569.914          49.400  
  21880473.055    21880472.934    89596822.697 8                        37.200  
  22945029.984    22945027.613   122654290.929 7      -735.425          48.100  
                  22945035.738    95397856.037 8      -571.993          39.900  
  22816029.570    22816026.848   121751025.149 6      2705.589          44.600  
                  22816036.848    94695100.946 8      2104.337          39.900  
  22417265.500    22417265.594   119791051.207 7     -4403.287          45.500  
                  22417275.125    93170767.350 8     -3424.776          34.800  
  19568772.375    19568771.176   104532700.833 7     -1160.104          47.200  
                  19568778.246    81303325.498 9      -902.304          46.800  
  21515459.320    21515458.824   114891365.536 7      3057.673          46.000  
                  21515465.191    89359941.867 9      2378.188          42.800  
  20976389.742    20976389.246   112248966.002 8     -2956.572          50.500  
                  20976396.434    87304682.503 9     -2299.559          45.700  
  19248713.789    19248712.121   102751022.134 8       219.486          52.800  
                  19248717.781    79917382.486 9       170.711          49.400  
  22469222.453    22469222.547   120195967.825 7      3319.659          48.000  
                  22469232.313    93485193.929 9      2581.957          42.900  
 14 10 17  7 31 20.0000000  0 15G02G05G16G21G25G29G31R05R06R11R12R13 0.000000000
                                R21R22R23                   
  24719747.180                   129903113.151 6     -3211.028          42.800  
                  24719757.328   101223150.253 6                        24.600  
  23312696.383                   122509082.135 6       511.278          43.800  
  23312704.133    23312703.836    95461679.135 7                        28.900  
  24633867.172                   129451826.559 4      3513.355          37.900  
                  24633874.391   100871569.701 5                        14.800  
  22557619.156                   118541178.590 7      2613.358          49.000  
                  22557625.027    92369723.197 7                        31.500  
  22066156.852                   115958547.254 6     -2908.219          46.900  
  22066167.707                                                                  
  20206542.422                   106186042.666 7      -813.396          50.800  
  20206548.941    20206548.996    82742417.665 9                        43.800  
  21881961.172                   114990425.964 7     -1572.711          49.500  
  21881967.867    21881967.629    89602945.988 8                        37.300  
  22945719.945    22945718.629   122657981.009 7      -739.660          48.000  
                  22945726.051    95400726.078 8      -575.282          39.300  
  22813495.352    22813493.801   121737506.208 6      2702.693          44.600  
                  22813503.688    94684586.226 8      2102.087          40.200  
  22421386.844    22421385.527   119813071.806 7     -4404.563          45.700  
                  22421395.180    93187894.449 8     -3425.763          34.900  
  19569860.820    19569859.738   104538515.213 7     -1164.629          47.200  
                  19569866.809    81307847.783 9      -905.818          46.500  
  21512598.695    21512597.613   114876086.606 7      3054.604          46.800  
                  21512603.863    89348058.249 9      2375.803          42.600  
  20979151.688    20979152.133   112263752.707 8     -2957.786          50.300  
                  20979159.672    87316183.261 9     -2300.498          45.600  
  19248509.656    19248507.871   102749933.162 8       216.752          52.400  
                  19248513.531    79916535.500 9       168.588          49.700  
  22466120.664    22466119.582   120179373.853 7      3318.336          48.300  
                  22466129.820    93472287.514 9      2580.927          42.800  
 14 10 17  7 31 25.0000000  0 15G02G05G16G21G25G29G31R05R06R11R12R13 0.000000000
                                R21R22R23                   
  24722803.211                   129919170.938 6     -3211.866          42.200  
                  24722813.125   101235662.818 6                        23.200  
  23312211.898                   122506535.802 6       507.982          44.400  
  23312218.945    23312219.000    95459694.986 7                        29.100  
  24630524.625                   129434261.367 4      3512.905          38.800  
                  24630532.020   100857882.525 5                        16.900  
  22555133.359                   118528117.001 7      2611.663          48.400  
                  22555139.465    92359545.345 7                        32.400  
  22068925.109                   115973093.877 7     -2910.023          48.300  
  22068935.965                                                                  
  20207317.555                   106190116.070 7      -815.488          51.800  
  20207324.133    20207324.188    82745591.744 9                        44.100  
  21883459.711                   114998298.557 7     -1575.677          50.200  
  21883466.406    21883466.344    89609080.468 8                        38.000  
  22946413.492    22946412.527   122661692.491 7      -744.024          47.900  
                  22946420.770    95403612.776 8      -578.688          39.400  
  22810965.766    22810963.512   121724002.099 7      2699.625          45.100  
                  22810973.160    94674083.066 8      2099.702          39.500  
  22425509.242    22425508.512   119835099.322 7     -4406.079          46.100  
                  22425518.047    93205026.931 8     -3426.942          34.900  
  19570954.172    19570953.676   104544352.616 7     -1169.308          47.600  
                  19570960.395    81312387.976 9      -909.458          46.400  
  21509740.266    21509739.066   114860823.238 7      3051.399          46.900  
                  21509745.316    89336186.749 9      2373.310          42.900  
  20981917.797    20981916.129   112278546.017 8     -2959.195          51.200  
                  20981923.551    87327689.145 9     -2301.591          45.800  
  19248308.039    19248306.488   102748858.378 8       213.787          52.300  
                  19248312.266    79915699.555 9       166.281          49.700  
  22463020.055    22463019.090   120162786.803 7      3316.863          48.000  
                  22463029.211    93459386.493 9      2579.777          42.900  
 14 10 17  7 31 30.0000000  0 15G02G05G16G21G25G29G31R05R06R11R12R13 0.000000000
                                R21R22R23                   
  24725859.063                   129935232.412 6     -3212.541          42.300  
                  24725869.504   101248178.212 6                        22.900  
  23311730.133                   122504005.555 6       504.817          45.200  
  23311738.117    23311737.586    95457723.359 7                        28.000  
  24627182.055                   129416697.823 5      3512.597          39.200  
                  24627189.684   100844196.631 5                        15.600  
  22552649.188                   118515063.494 7      2610.086          48.000  
                  22552655.645    92349373.793 7                        31.400  
  22071694.523                   115987649.127 7     -2911.698          48.000  
  22071704.910                                                                  
  20208094.445                   106194199.503 7      -817.458          52.000  
  20208101.551    20208101.488    82748773.638 9                        43.500  
  21884960.250                   115006185.584 7     -1578.525          50.000  
  21884967.531    21884967.234    89615226.195 8                        38.100  
  22947111.922    22947111.074   122665425.522 7      -748.296          47.000  
                  22947119.082    95406516.235 8      -582.004          39.300  
  22808438.250    22808435.762   121710512.741 6      2696.694          44.600  
                  22808445.527    94663591.347 8      2097.427          39.800  
  22429632.984    22429631.551   119857133.737 7     -4407.392          45.300  
                  22429641.203    93222164.772 8     -3427.968          34.900  
  19572050.672    19572049.590   104550213.040 7     -1173.875          48.000  
                  19572056.895    81316946.072 9      -913.012          46.200  
  21506885.641    21506884.324   114845575.528 7      3048.313          47.300  
                  21506890.809    89324327.420 9      2370.914          43.200  
  20984684.047    20984682.262   112293345.875 8     -2960.448          51.100  
                  20984689.684    87339200.141 9     -2302.569          45.500  
  19248110.016    19248108.934   102747797.918 8       211.014          52.300  
                  19248114.711    79914874.756 9       164.119          49.100  
  22459921.102    22459919.785   120146206.615 7      3315.534          47.700  
                  22459929.555    93446490.802 9      2578.745          42.900  
 14 10 17  7 31 35.0000000  0 15G02G05G16G21G25G29G31R05R06R11R12R13 0.000000000
                                R21R22R23                   
  24728916.258                   129951297.674 6     -3213.379          42.100  
                  24728926.758   101260696.573 6                        22.900  
  23311252.195                   122501491.492 6       501.495          44.400  
  23311259.828    23311259.238    95455764.346 7                        29.100  
  24623840.359                   129399136.043 5      3512.171          39.200  
                  24623847.520   100830512.185 5                        15.600  
  22550166.180                   118502018.159 7      2608.370          48.100  
                  22550172.871    92339208.612 7                        32.100  
  22074466.438                   116002213.103 6     -2913.519          46.600  
  22074476.414                                                                  
  20208873.938                   106198293.066 7      -819.559          51.200  
  20208880.750    20208880.688    82751963.428 9                        43.800  
  21886463.836                   115014087.077 7     -1581.490          49.300  
  21886471.000    21886470.820    89621383.196 8                        37.100  
  22947813.766    22947813.742   122669180.095 7      -752.661          47.700  
                  22947822.102    95409436.454 8      -585.400          39.600  
  22805911.234    22805910.387   121697038.241 6      2693.688          44.500  
                  22805920.156    94653111.195 8      2095.091          39.600  
  22433757.422    22433756.691   119879174.933 7     -4408.807          45.700  
                  22433766.344    93239307.892 8     -3429.063          34.500  
  19573151.703    19573151.797   104556096.481 7     -1178.566          47.200  
                  19573158.746    81321522.069 9      -916.657          46.100  
  21504032.328    21504031.949   114830343.726 7      3045.053          46.600  
                  21504038.199    89312480.468 9      2368.373          43.100  
  20987450.563    20987449.246   112308152.484 8     -2961.903          50.500  
                  20987456.551    87350716.385 9     -2303.694          45.100  
  19247913.914    19247912.949   102746751.540 8       208.101          52.200  
                  19247918.609    79914060.903 9       161.858          49.300  
  22456822.383    22456822.477   120129633.512 7      3314.028          48.700  
                  22456831.891    93433600.619 9      2577.574          42.800  
 14 10 17  7 31 40.0000000  0 15G02G05G16G21G25G29G31R05R06R11R12R13 0.000000000
                                R21R22R23                   
  24731973.820                   129967366.821 6     -3214.118          42.900  
                  24731984.613   101273217.973 6                        22.200  
  23310777.063                   122498993.694 6       498.258          44.500  
  23310784.344    23310784.340    95453818.022 7                        28.600  
  24620498.773                   129381576.249 5      3511.823          39.300  
                  24620506.520   100816829.107 5                        17.400  
  22547685.531                   118488981.041 7      2606.762          47.700  
                  22547692.047    92329049.829 7                        32.300  
  22077239.305                   116016785.840 6     -2915.254          45.800  
  22077248.871                                                                  
  20209654.648                   106202396.862 7      -821.577          51.200  
  20209662.047    20209661.809    82755161.185 9                        43.900  
  21887970.508                   115022003.139 7     -1584.380          50.400  
  21887978.258    21887978.254    89627551.546 8                        37.300  
  22948520.313    22948519.816   122672956.298 7      -756.956          47.300  
                  22948528.297    95412373.495 8      -588.740          39.300  
  22803389.063    22803387.746   121683578.811 6      2690.665          44.800  
                  22803397.633    94642642.771 8      2092.741          39.400  
  22437883.203    22437881.887   119901223.056 7     -4410.170          45.300  
                  22437892.242    93256456.398 8     -3430.124          33.800  
  19574257.664    19574257.168   104562003.221 7     -1183.190          47.300  
                  19574264.121    81326116.193 9      -920.259          46.100  
  21501183.344    21501182.027   114815127.862 7      3041.898          46.600  
                  21501188.629    89300645.898 9      2365.918          42.800  
  20990218.023    20990217.762   112322965.786 8     -2963.214          50.200  
                  20990224.715    87362237.830 9     -2304.720          45.000  
  19247720.203    19247719.355   102745719.617 8       205.231          51.900  
                  19247725.137    79913258.292 9       159.627          49.600  
  22453725.773    22453725.395   120113067.341 7      3312.681          48.600  
                  22453735.047    93420715.820 9      2576.528          43.000  
 14 10 17  7 31 45.0000000  0 15G02G05G16G21G25G29G31R05R06R11R12R13 0.000000000
                                R21R22R23                   
  24735031.781                   129983439.642 6     -3214.853          42.100  
                  24735043.160   101285742.228 6                        22.300  
  23310304.594                   122496511.988 6       495.048          44.300  
  23310311.992    23310311.813    95451884.227 7                        29.100  
  24617158.336                   129364018.140 4      3511.480          38.700  
                  24617165.145   100803147.540 5                        16.900  
  22545205.766                   118475952.024 7      2605.153          47.500  
                  22545212.691    92318897.358 7                        32.100  
  22080013.805                   116031367.242 6     -2916.980          46.600  
  22080024.777                                                                  
  20210437.633                   106206510.703 7      -823.581          51.300  
  20210444.211    20210444.207    82758366.772 9                        43.400  
  21889479.945                   115029933.590 7     -1587.263          50.100  
  21889487.051    21889486.930    89633731.110 8                        37.700  
  22949231.961    22949230.527   122676753.926 7      -761.244          47.300  
                  22949238.652    95415327.199 8      -592.079          39.300  
  22800869.203    22800868.824   121670134.428 7      2687.667          45.100  
                  22800878.125    94632186.048 8      2090.399          39.400  
  22442010.469    22442010.207   119923277.934 7     -4411.507          45.800  
                  22442019.977    93273610.170 8     -3431.167          34.600  
  19575368.367    19575366.699   104567932.939 7     -1187.780          48.000  
                  19575374.004    81330728.191 9      -923.825          46.400  
  21498337.008    21498334.871   114799927.718 7      3038.770          46.500  
                  21498341.234    89288823.568 9      2363.488          42.400  
  20992987.109    20992986.969   112337785.629 8     -2964.486          50.500  
                  20992994.270    87373764.363 9     -2305.712          45.600  
  19247528.953    19247528.457   102744701.964 8       202.386          51.800  
                  19247534.238    79912466.783 9       157.415          49.400  
  22450630.414    22450629.684   120096508.139 7      3311.266          48.700  
                  22450639.336    93407836.449 9      2575.429          42.600  
 14 10 17  7 31 50.0000000  0 15G02G05G16G21G25G29G31R05R06R11R12R13 0.000000000
                                R21R22R23                   
  24738091.328                   129999516.237 5     -3215.661          42.000  
                  24738102.238   101298269.421 6                        22.300  
  23309835.102                   122494046.497 6       491.783          44.400  
  23309842.676    23309842.262    95449963.079 7                        29.100  
  24613817.078                   129346461.847 5      3511.089          39.200  
                  24613824.297   100789467.276 5                        16.900  
  22542727.828                   118462931.186 7      2603.482          47.500  
                  22542734.754    92308751.261 7                        32.300  
  22082790.477                   116045957.305 6     -2918.748          46.500  
  22082800.570                                                                  
  20211222.172                   106210634.660 7      -825.616          50.900  
  20211228.926    20211229.039    82761580.239 9                        43.600  
  21890991.680                   115037878.507 7     -1590.169          50.200  
  21890998.727    21890998.723    89639921.941 8                        37.300  
